[
  {
    "name": "Station Rijen",
    "latitude": 51.588090,
    "longitude": 4.920310
  },
  {
    "name": "Sint Petrus Bandenkerk (Gilze)",
    "latitude": 51.552090,
    "longitude": 4.930110
  },
  {
    "name": "Brouwerij De Pimpelmeesch (Molenschot)",
    "latitude": 51.568310,
    "longitude": 4.902180
  },
  {
    "name": "Museum Miniaturen & Poppenhuizen (Rijen)",
    "latitude": 51.589470,
    "longitude": 4.922830
  },
  {
    "name": "Boswachterij Dorst - Uitkijktoren",
    "latitude": 51.588420,
    "longitude": 4.897570
  },
  {
    "name": "Recreatiepark 't Veen (Gilze)",
    "latitude": 51.551950,
    "longitude": 4.937300
  },
  {
    "name": "Sint Antoniuskerk (Molenschot)",
    "latitude": 51.570800,
    "longitude": 4.905700
  },
  {
    "name": "Hultens Broek (natuurgebied)",
    "latitude": 51.572100,
    "longitude": 4.963800
  },
  {
    "name": "Airbase Gilze-Rijen (spottersplek)",
    "latitude": 51.564500,
    "longitude": 4.922700
  },
  {
    "name": "Wilhelminapark (Rijen)",
    "latitude": 51.590400,
    "longitude": 4.919600
  }
]
